{"type":"FeatureCollection","features":[{"type":"Feature","properties":{"area_name":"Barking and Dagenham","area_code":"E09000002","April 2020":17,"May 2020":5,"June 2020":8,"July 2020":0,"August 2020":0,"September 2020":0,"October 2020":0,"November 2020":1,"December 2020":3,"January 2021":2,"February 2021":3,"March 2021":0,"April 2021":1},"geometry":{"type":"Point","coordinates":[0.1332,51.544]}},{"type":"Feature","properties":{"area_name":"Barnet","area_code":"E09000003","April 2020":50,"May 2020":23,"June 2020":25,"July 2020":0,"August 2020":1,"September 2020":0,"October 2020":1,"November 2020":5,"December 2020":6,"January 2021":30,"February 2021":2,"March 2021":7,"April 2021":1},"geometry":{"type":"Point","coordinates":[-0.21,51.616]}},{"type":"Feature","properties":{"area_name":"Bexley","area_code":"E09000004","April 2020":24,"May 2020":15,"June 2020":16,"July 2020":0,"August 2020":0,"September 2020":0,"October 2020":0,"November 2020":7,"December 2020":13,"January 2021":10,"February 2021":5,"March 2021":3,"April 2021":0},"geometry":{"type":"Point","coordinates":[0.1423,51.4609]}},{"type":"Feature","properties":{"area_name":"Brent","area_code":"E09000005","April 2020":32,"May 2020":0,"June 2020":0,"July 2020":1,"August 2020":0,"September 2020":0,"October 2020":0,"November 2020":1,"December 2020":0,"January 2021":7,"February 2021":3,"March 2021":1,"April 2021":0},"geometry":{"type":"Point","coordinates":[-0.2678,51.5586]}},{"type":"Feature","properties":{"area_name":"Bromley","area_code":"E09000006","April 2020":37,"May 2020":24,"June 2020":29,"July 2020":0,"August 2020":0,"September 2020":1,"October 2020":0,"November 2020":1,"December 2020":2,"January 2021":17,"February 2021":12,"March 2021":2,"April 2021":0},"geometry":{"type":"Point","coordinates":[0.0515,51.372]}},{"type":"Feature","properties":{"area_name":"Camden","area_code":"E09000007","April 2020":12,"May 2020":5,"June 2020":5,"July 2020":0,"August 2020":0,"September 2020":0,"October 2020":0,"November 2020":0,"December 2020":0,"January 2021":0,"February 2021":4,"March 2021":0,"April 2021":0},"geometry":{"type":"Point","coordinates":[-0.1574,51.5464]}},{"type":"Feature","properties":{"area_name":"Croydon","area_code":"E09000008","April 2020":35,"May 2020":33,"June 2020":34,"July 2020":1,"August 2020":0,"September 2020":1,"October 2020":0,"November 2020":3,"December 2020":1,"January 2021":10,"February 2021":9,"March 2021":1,"April 2021":1},"geometry":{"type":"Point","coordinates":[-0.0872,51.3553]}},{"type":"Feature","properties":{"area_name":"Ealing","area_code":"E09000009","April 2020":46,"May 2020":13,"June 2020":14,"July 2020":0,"August 2020":1,"September 2020":0,"October 2020":1,"November 2020":2,"December 2020":3,"January 2021":10,"February 2021":7,"March 2021":3,"April 2021":0},"geometry":{"type":"Point","coordinates":[-0.331,51.5225]}},{"type":"Feature","properties":{"area_name":"Enfield","area_code":"E09000010","April 2020":65,"May 2020":17,"June 2020":21,"July 2020":3,"August 2020":0,"September 2020":1,"October 2020":0,"November 2020":0,"December 2020":0,"January 2021":14,"February 2021":2,"March 2021":1,"April 2021":1},"geometry":{"type":"Point","coordinates":[-0.0873,51.651]}},{"type":"Feature","properties":{"area_name":"Greenwich","area_code":"E09000011","April 2020":10,"May 2020":1,"June 2020":1,"July 2020":0,"August 2020":0,"September 2020":0,"October 2020":0,"November 2020":0,"December 2020":0,"January 2021":3,"February 2021":1,"March 2021":1,"April 2021":0},"geometry":{"type":"Point","coordinates":[0.0555,51.4744]}},{"type":"Feature","properties":{"area_name":"Hackney","area_code":"E09000012","April 2020":2,"May 2020":3,"June 2020":3,"July 2020":0,"August 2020":0,"September 2020":0,"October 2020":0,"November 2020":0,"December 2020":2,"January 2021":1,"February 2021":0,"March 2021":0,"April 2021":0},"geometry":{"type":"Point","coordinates":[-0.0633,51.5523]}},{"type":"Feature","properties":{"area_name":"Hammersmith and Fulham","area_code":"E09000013","April 2020":21,"May 2020":6,"June 2020":6,"July 2020":0,"August 2020":0,"September 2020":1,"October 2020":0,"November 2020":0,"December 2020":0,"January 2021":0,"February 2021":2,"March 2021":0,"April 2021":0},"geometry":{"type":"Point","coordinates":[-0.2208,51.495]}},{"type":"Feature","properties":{"area_name":"Haringey","area_code":"E09000014","April 2020":11,"May 2020":7,"June 2020":8,"July 2020":0,"August 2020":0,"September 2020":0,"October 2020":0,"November 2020":2,"December 2020":2,"January 2021":4,"February 2021":1,"March 2021":0,"April 2021":0},"geometry":{"type":"Point","coordinates":[-0.1075,51.5904]}},{"type":"Feature","properties":{"area_name":"Harrow","area_code":"E09000015","April 2020":32,"May 2020":16,"June 2020":19,"July 2020":0,"August 2020":0,"September 2020":0,"October 2020":0,"November 2020":0,"December 2020":0,"January 2021":1,"February 2021":4,"March 2021":1,"April 2021":0},"geometry":{"type":"Point","coordinates":[-0.3413,51.5977]}},{"type":"Feature","properties":{"area_name":"Havering","area_code":"E09000016","April 2020":15,"May 2020":12,"June 2020":15,"July 2020":0,"August 2020":1,"September 2020":1,"October 2020":0,"November 2020":1,"December 2020":12,"January 2021":36,"February 2021":12,"March 2021":7,"April 2021":0},"geometry":{"type":"Point","coordinates":[0.2204,51.5631]}},{"type":"Feature","properties":{"area_name":"Hillingdon","area_code":"E09000017","April 2020":44,"May 2020":7,"June 2020":9,"July 2020":1,"August 2020":0,"September 2020":0,"October 2020":0,"November 2020":1,"December 2020":5,"January 2021":13,"February 2021":11,"March 2021":2,"April 2021":0},"geometry":{"type":"Point","coordinates":[-0.4457,51.5415]}},{"type":"Feature","properties":{"area_name":"Hounslow","area_code":"E09000018","April 2020":13,"May 2020":10,"June 2020":11,"July 2020":0,"August 2020":1,"September 2020":2,"October 2020":0,"November 2020":1,"December 2020":12,"January 2021":13,"February 2021":5,"March 2021":1,"April 2021":1},"geometry":{"type":"Point","coordinates":[-0.3662,51.4685]}},{"type":"Feature","properties":{"area_name":"Islington","area_code":"E09000019","April 2020":15,"May 2020":4,"June 2020":4,"July 2020":0,"August 2020":0,"September 2020":0,"October 2020":0,"November 2020":0,"December 2020":1,"January 2021":13,"February 2021":2,"March 2021":0,"April 2021":0},"geometry":{"type":"Point","coordinates":[-0.1102,51.5485]}},{"type":"Feature","properties":{"area_name":"Kensington and Chelsea","area_code":"E09000020","April 2020":7,"May 2020":1,"June 2020":1,"July 2020":0,"August 2020":0,"September 2020":1,"October 2020":0,"November 2020":0,"December 2020":0,"January 2021":16,"February 2021":1,"March 2021":0,"April 2021":0},"geometry":{"type":"Point","coordinates":[-0.1922,51.5012]}},{"type":"Feature","properties":{"area_name":"Kingston upon Thames","area_code":"E09000021","April 2020":36,"May 2020":8,"June 2020":8,"July 2020":0,"August 2020":0,"September 2020":0,"October 2020":0,"November 2020":1,"December 2020":1,"January 2021":8,"February 2021":7,"March 2021":0,"April 2021":1},"geometry":{"type":"Point","coordinates":[-0.2869,51.3879]}},{"type":"Feature","properties":{"area_name":"Lambeth","area_code":"E09000022","April 2020":16,"May 2020":6,"June 2020":6,"July 2020":0,"August 2020":0,"September 2020":0,"October 2020":0,"November 2020":0,"December 2020":1,"January 2021":3,"February 2021":9,"March 2021":5,"April 2021":0},"geometry":{"type":"Point","coordinates":[-0.1183,51.4538]}},{"type":"Feature","properties":{"area_name":"Lewisham","area_code":"E09000023","April 2020":12,"May 2020":8,"June 2020":10,"July 2020":0,"August 2020":0,"September 2020":0,"October 2020":0,"November 2020":0,"December 2020":0,"January 2021":18,"February 2021":4,"March 2021":1,"April 2021":0},"geometry":{"type":"Point","coordinates":[-0.0203,51.4483]}},{"type":"Feature","properties":{"area_name":"Merton","area_code":"E09000024","April 2020":13,"May 2020":7,"June 2020":7,"July 2020":3,"August 2020":0,"September 2020":0,"October 2020":0,"November 2020":0,"December 2020":0,"January 2021":4,"February 2021":0,"March 2021":1,"April 2021":0},"geometry":{"type":"Point","coordinates":[-0.1972,51.4099]}},{"type":"Feature","properties":{"area_name":"Newham","area_code":"E09000025","April 2020":18,"May 2020":4,"June 2020":6,"July 2020":0,"August 2020":0,"September 2020":0,"October 2020":0,"November 2020":0,"December 2020":1,"January 2021":0,"February 2021":0,"March 2021":0,"April 2021":0},"geometry":{"type":"Point","coordinates":[0.0375,51.5269]}},{"type":"Feature","properties":{"area_name":"Redbridge","area_code":"E09000026","April 2020":18,"May 2020":6,"June 2020":7,"July 2020":1,"August 2020":0,"September 2020":0,"October 2020":1,"November 2020":4,"December 2020":3,"January 2021":16,"February 2021":8,"March 2021":0,"April 2021":0},"geometry":{"type":"Point","coordinates":[0.0759,51.5857]}},{"type":"Feature","properties":{"area_name":"Richmond upon Thames","area_code":"E09000027","April 2020":24,"May 2020":9,"June 2020":13,"July 2020":1,"August 2020":2,"September 2020":0,"October 2020":0,"November 2020":0,"December 2020":0,"January 2021":1,"February 2021":4,"March 2021":3,"April 2021":0},"geometry":{"type":"Point","coordinates":[-0.3124,51.4427]}},{"type":"Feature","properties":{"area_name":"Southwark","area_code":"E09000028","April 2020":8,"May 2020":3,"June 2020":4,"July 2020":0,"August 2020":0,"September 2020":0,"October 2020":0,"November 2020":0,"December 2020":0,"January 2021":0,"February 2021":4,"March 2021":0,"April 2021":0},"geometry":{"type":"Point","coordinates":[-0.0741,51.4742]}},{"type":"Feature","properties":{"area_name":"Sutton","area_code":"E09000029","April 2020":21,"May 2020":14,"June 2020":18,"July 2020":0,"August 2020":0,"September 2020":0,"October 2020":0,"November 2020":0,"December 2020":3,"January 2021":12,"February 2021":7,"March 2021":2,"April 2021":0},"geometry":{"type":"Point","coordinates":[-0.1776,51.3621]}},{"type":"Feature","properties":{"area_name":"Tower Hamlets","area_code":"E09000030","April 2020":19,"May 2020":6,"June 2020":6,"July 2020":0,"August 2020":0,"September 2020":0,"October 2020":0,"November 2020":0,"December 2020":1,"January 2021":0,"February 2021":1,"March 2021":0,"April 2021":0},"geometry":{"type":"Point","coordinates":[-0.0347,51.5157]}},{"type":"Feature","properties":{"area_name":"Waltham Forest","area_code":"E09000031","April 2020":10,"May 2020":3,"June 2020":4,"July 2020":0,"August 2020":0,"September 2020":0,"October 2020":0,"November 2020":0,"December 2020":3,"January 2021":5,"February 2021":0,"March 2021":0,"April 2021":0},"geometry":{"type":"Point","coordinates":[-0.0126,51.594]}},{"type":"Feature","properties":{"area_name":"Wandsworth","area_code":"E09000032","April 2020":18,"May 2020":9,"June 2020":14,"July 2020":3,"August 2020":0,"September 2020":0,"October 2020":1,"November 2020":0,"December 2020":4,"January 2021":12,"February 2021":11,"March 2021":2,"April 2021":0},"geometry":{"type":"Point","coordinates":[-0.1862,51.452]}},{"type":"Feature","properties":{"area_name":"Westminster","area_code":"E09000033","April 2020":8,"May 2020":1,"June 2020":1,"July 2020":0,"August 2020":0,"September 2020":0,"October 2020":0,"November 2020":0,"December 2020":0,"January 2021":2,"February 2021":2,"March 2021":0,"April 2021":0},"geometry":{"type":"Point","coordinates":[-0.1605,51.5134]}}]}